[{"imo_number":"9700001","vessel_name":"YM HARMONY","report_date":"2026-06-30","latitude":31.23,"longitude":121.5,"speed_loss_pct":null,"cii_rating_aer":"A","voyage_phase":"in_port","port_from":"SGSIN","port_to":"CNSHA","voyage_no":1706},{"imo_number":"9700002","vessel_name":"YM ENLIGHTEN","report_date":"2026-06-30","latitude":35.4788,"longitude":134.3877,"speed_loss_pct":4.5678,"cii_rating_aer":"A","voyage_phase":"at_sea","port_from":"KRPUS","port_to":"JPTYO","voyage_no":1447},{"imo_number":"9700003","vessel_name":"YM PLENTY","report_date":"2026-06-30","latitude":1.27,"longitude":103.83,"speed_loss_pct":9.439,"cii_rating_aer":"C","voyage_phase":"at_sea","port_from":"HKHKG","port_to":"SGSIN","voyage_no":1892},{"imo_number":"9700004","vessel_name":"YM PROSPER","report_date":"2026-06-30","latitude":40.2054,"longitude":149.3399,"speed_loss_pct":6.2022,"cii_rating_aer":"B","voyage_phase":"at_sea","port_from":"USLAX","port_to":"JPTYO","voyage_no":1398},{"imo_number":"9700005","vessel_name":"YM EXCELLENCE","report_date":"2026-06-30","latitude":46.4506,"longitude":172.1488,"speed_loss_pct":3.7319,"cii_rating_aer":"C","voyage_phase":"at_sea","port_from":"USLAX","port_to":"JPTYO","voyage_no":1376},{"imo_number":"9700006","vessel_name":"YM WELLNESS","report_date":"2026-06-30","latitude":35.1081,"longitude":14.7133,"speed_loss_pct":6.0916,"cii_rating_aer":"D","voyage_phase":"at_sea","port_from":"AEDXB","port_to":"DEHAM","voyage_no":1625},{"imo_number":"9700007","vessel_name":"YM WARRANTY","report_date":"2026-06-30","latitude":19.5259,"longitude":49.6044,"speed_loss_pct":7.0846,"cii_rating_aer":"C","voyage_phase":"at_sea","port_from":"NLRTM","port_to":"AEDXB","voyage_no":1535},{"imo_number":"9700008","vessel_name":"YM TRIUMPH","report_date":"2026-06-30","latitude":35.1,"longitude":129.04,"speed_loss_pct":4.0209,"cii_rating_aer":"C","voyage_phase":"at_sea","port_from":"CNSHA","port_to":"KRPUS","voyage_no":1640},{"imo_number":"9700009","vessel_name":"YM TITAN","report_date":"2026-06-30","latitude":25.01,"longitude":55.06,"speed_loss_pct":1.6941,"cii_rating_aer":"C","voyage_phase":"at_sea","port_from":"NLRTM","port_to":"AEDXB","voyage_no":1541}]